name,longitude,latitude,region,country
Springfield,-72.589811,42.101483,Northeast,USA
Cape Town,18.423300,-33.918861,Southern Suburbs,South Africa
Kyoto,135.7681,35.0116,Kansai,Japan
Buenos Aires,-58.3816,-34.6037,Buenos Aires Province,Argentina
Stockholm,18.0686,59.3293,Stockholm County,Sweden
